stop_id,stop_code,stop_name,stop_desc,stop_lat,stop_lon,zone_id,wheelchair_boarding
1_12,28105z,Baselga Del Bondone,,46.078317,11.046924,10110,2
2_12,28105x,Baselga Del Bondone,,46.078581,11.047541,10110,2
3_12,27105c,Belvedere,,46.044406,11.105342,10110,2
4_12,22220z,Lamar Ponte Avisio,,46.134620,11.110914,10110,2
5_12,28060z,Sp 85 Bivio Sopramonte,,46.085226,11.069313,10110,2
7_12,24405z,Maso Bolleri,,46.102485,11.124174,10110,2
8_12,24405x,Maso Bolleri,,46.102234,11.123940,10110,2
9_12,25205x,Borino,,46.067367,11.165050,10110,2
10_12,28205z,Cadine Strada Gardesana,,46.088630,11.065018,10110,2
11_12,28205x,Cadine Strada Gardesana,,46.088729,11.064509,10110,2
12_12,22110c,Canova Paludi,,46.099170,11.109314,10110,1
13_12,22015x,Gardolo "Materna Paludi",,46.103846,11.108235,10110,2
14_12,21220-,Centro Commerciale,,46.091584,11.105652,10110,2
15_12,21105z,Asiago S.Bartolameo,,46.047972,11.137456,10110,2
16_12,21100x,Asiago Banala,,46.047681,11.137741,10110,2
17_12,24015x,Cognola "Toresela",,46.078904,11.153473,10110,2
18_12,24015z,Cognola "Toresela",,46.078863,11.153929,10110,2
19_12,24025x,Cognola Bivio Civezzano,,46.080613,11.158419,10110,2
20_12,24025z,Cognola Bivio Civezzano,,46.080472,11.158403,10110,2
21_12,24005c,Cognola "Centro Civico",,46.076472,11.141513,10110,1
22_12,24030z,Cognola Grezoni,,46.075911,11.146833,10110,2
23_12,24030x,Cognola Grezoni,,46.076012,11.146613,10110,2
24_12,24105z,San Vito,,46.075332,11.139033,10110,2
25_12,24035x,Cognola S.Vito,,46.075696,11.140797,10110,2
26_12,24035z,Cognola S.Vito,,46.075623,11.141786,10110,2
27_12,24105x,San Vito,,46.075433,11.138833,10110,2
28_12,24010z,Cognola "Scuole",,46.075698,11.143991,10110,2
29_12,24010x,Cognola "Scuole",,46.075853,11.144062,10110,2
30_12,24020z,Cognola Alla Veduta "Roza",,46.077564,11.151102,10110,2
31_12,24020x,Cognola Alla Veduta "Roza",,46.078007,11.151432,10110,2
32_12,21180z,Brescia "Villa Salvotti",,46.076123,11.101184,10110,2
37_12,21270z,Degli Alpini Oberziner,,46.078759,11.118392,10110,2
38_12,23105c,Cortesano,,46.124481,11.133818,10110,1
39_12,23420z,Vigo Meano Alle Gorghe,,46.129889,11.134571,10110,1
40_12,23420x,Vigo Meano Alle Gorghe,,46.129522,11.134680,10110,2
43_12,28050x,Forte Bus De Vela,,46.084969,11.070113,10110,2
46_12,25305z,Gabbiolo "Campo Sportivo",,46.055265,11.148982,10110,2
47_12,25305x,Gabbiolo "Campo Sportivo",,46.055310,11.148782,10110,2
48_12,22080z,Sp 76 Carpenedi,,46.117195,11.108678,10110,2
49_12,22080x,Sp 76 Carpenedi,,46.117171,11.108438,10110,2
50_12,22065z,Gardolo S.Anna,,46.111144,11.109544,10110,1
51_12,22065x,Gardolo S.Anna,,46.110834,11.109573,10110,1
52_12,22055s,Gardolo P.Le Neufahrn Sud,,46.106559,11.111466,10110,1
53_12,22055n,Gardolo P.Le Neufahrn Nord,,46.106678,11.111444,10110,1
54_12,22060z,Gardolo Piazza,,46.108340,11.111719,10110,1
55_12,22060x,Gardolo Piazza,,46.108506,11.111436,10110,2
56_12,22105-,Canova Aichner,,46.101856,11.103284,10110,2
57_12,22115-,Canova Via Della Canova,,46.099689,11.107570,10110,2
58_12,22040z,Gardolo Don Milani 8 Marzo,,46.103934,11.117583,10110,2
59_12,22045x,Gardolo D.Milani "Piscina",,46.106686,11.114327,10110,2
60_12,22045z,Gardolo D.Milani "Piscina",,46.106749,11.114389,10110,2
61_12,22040x,Gardolo Don Milani 8 Marzo,,46.104204,11.117281,10110,2
62_12,22070z,Gardolo S.Anna Carpenedi,,46.113320,11.107854,10110,2
63_12,22070x,Gardolo S.Anna Carpenedi,,46.113459,11.107399,10110,2
64_12,22075x,Gardolo Svincolo Ss.12,,46.106227,11.109072,10110,1
65_12,23215z,Gazzadina Strada Vecchia,,46.130109,11.126043,10110,2
66_12,23210z,Gazzadina Al Pontat,,46.128445,11.129219,10110,2
67_12,23210x,Gazzadina Al Pontat,,46.128599,11.129270,10110,2
68_12,23215x,Gazzadina Strada Vecchia,,46.130190,11.125945,10110,2
69_12,25710c,Grotta Piazza,,46.045800,11.151130,10110,2
70_12,25705z,Grotta Bindesi,,46.043392,11.151716,10110,2
71_12,25705x,Grotta Bindesi,,46.043502,11.151592,10110,2
72_12,22230z,Ss 12 "Zona Ind.Le Ftm",,46.119309,11.106123,10110,2
73_12,22205z,Lamar "Ftm",,46.125715,11.107713,10110,2
74_12,22205x,Lamar "Ftm",,46.125960,11.107593,10110,2
75_12,22210z,Lamar "Sottostazione Enel",,46.129241,11.109763,10110,2
76_12,21420z,Largo Sauro,,46.074848,11.124976,10110,1
77_12,29005z,Lavis "Stazione Ftm",,46.138664,11.108989,19025,2
78_12,29015x,Lavis Piazza Mercato,,46.137921,11.114458,19025,1
79_12,29020x,Lavis "Municipio",,46.139321,11.111958,19025,2
80_12,19025,Lavis Rosmini Segantini,,46.142197,11.108508,19025,1
81_12,29010z,Lavis Cembra,,46.143164,11.106402,19025,1
85_12,21210z,Centochiavi Dalla Fior,,46.094611,11.120675,10110,2
86_12,21205x,Centochiavi Chiocchetti,,46.093993,11.120699,10110,2
87_12,22410x,Melta "Case Itea",,46.102271,11.118109,10110,1
88_12,22405x,Parco di Melta,,46.097274,11.119767,10110,2
89_12,22415z,Melta Centro,,46.099443,11.119089,10110,2
90_12,22415x,Melta Centro,,46.100104,11.118730,10110,2
91_12,22405z,Parco di Melta,,46.097239,11.119901,10110,1
92_12,21115c,Bettini "Madonna Bianca",,46.042500,11.132908,10110,2
93_12,21690z,Stella "S.Gaetano",,46.036416,11.130367,10110,2
94_12,26040z,Ss 12 "Casteller",,46.025284,11.132751,10110,2
95_12,26040x,Ss 12 "Casteller",,46.025707,11.132791,10110,2
96_12,21465x,Madonna Bianca "S.Gaetano",,46.038012,11.130695,10110,2
97_12,21695x,Stella Marighetto,,46.034256,11.131509,10110,2
98_12,21460z,Madonna Bianca "Man",,46.040293,11.130341,10110,2
99_12,26045z,Ss 12 "Le Caverne",,46.030862,11.132677,10110,2
100_12,26045x,Ss 12 "Le Caverne",,46.030338,11.132911,10110,2
101_12,24335z,Martignano Formigheta,,46.089121,11.133090,10110,1
102_12,24335x,Martignano Formigheta,,46.089134,11.133216,10110,1
103_12,24305z,Martignano "Chiesa",,46.088732,11.130604,10110,2
104_12,24040z,Sp 131 "Maso Pradiscola",,46.083189,11.135736,10110,2
105_12,24040x,Sp 131 "Maso Pradiscola",,46.083255,11.135874,10110,1
106_12,24345z,Martignano P.Zza Menghin,,46.090240,11.131628,10110,2
107_12,24345x,Martignano P.Zza Menghin,,46.090275,11.131460,10110,2
108_12,24340x,Martignano Piazza Canopi,,46.089343,11.131031,10110,1
109_12,24350z,Sp 131 "Res. Silvana",,46.097726,11.126962,10110,2
110_12,24350x,Sp 131 "Res. Silvana",,46.097493,11.126925,10110,2
111_12,24310z,Martignano Ai Bolleri,,46.094491,11.130145,10110,2
112_12,24310x,Martignano Ai Bolleri,,46.094872,11.129322,10110,2
113_12,28015z,Sopramonte "Maso Banal",,46.068953,11.063564,10110,2
115_12,24355z,Sp 131 Al Maso Specchio,,46.104391,11.123568,10110,2
116_12,24355x,Sp 131 Al Maso Specchio,,46.104353,11.123420,10110,2
117_12,27015z,Ravina "Maso Stella",,46.032355,11.112678,10110,2
118_12,27015x,Ravina "Maso Stella",,46.032555,11.112930,10110,2
119_12,26030c,Mattarello Piazza Perini,,46.006903,11.128338,10110,2
120_12,26035z,Mattarello Via Nazionale,,46.012407,11.130564,10110,1
121_12,26035x,Mattarello Via Nazionale,,46.011659,11.130375,10110,2
122_12,26005x,Mattarello Pomeranos,,46.013560,11.131498,10110,1
123_12,26010z,Mattarello "Ronchi",,46.017244,11.132399,10110,2
124_12,26010x,Mattarello "Ronchi",,46.017362,11.132609,10110,2
125_12,26025x,Mattarello S.Leonardo,,46.006454,11.127627,10110,2
127_12,26020x,Mattarello Catoni,,46.009380,11.128974,10110,1
128_12,26015x,Mattarello Rio Stolzano,,46.003128,11.126824,10110,2
129_12,23020z,Meano Bivio S.Lazzaro,,46.128303,11.115281,10110,2
130_12,23020x,Meano Bivio S.Lazzaro,,46.127538,11.115265,10110,2
131_12,23040z,Sp 76 "Piac",,46.126690,11.114532,10110,1
133_12,23035z,Sp 76 "Maregioli",,46.130755,11.121750,10110,2
134_12,23035x,Sp 76 "Maregioli",,46.130836,11.121666,10110,1
135_12,23005z,Meano "Campo Sportivo",,46.128279,11.120267,10110,1
136_12,23005x,Meano "Campo Sportivo",,46.128310,11.119721,10110,1
137_12,23015z,Meano "Cimitero",,46.125736,11.118419,10110,1
138_12,23015x,Meano "Cimitero",,46.125483,11.118320,10110,1
139_12,23045z,Sp 76 "Via Rossa",,46.119858,11.111416,10110,2
140_12,23045x,Sp 76 "Via Rossa",,46.119812,11.111266,10110,2
141_12,23025z,Meano Piazza Dell'assunta,,46.122688,11.116846,10110,2
142_12,23030x,Meano Portoni,,46.123624,11.116855,10110,2
143_12,23055z,Sp 76 Dos di Lamar,,46.124939,11.113463,10110,2
144_12,23055x,Sp 76 Dos di Lamar,,46.124718,11.113018,10110,1
145_12,25405z,Mesiano "Fac. Ingegneria",,46.067391,11.138805,10110,2
146_12,25405x,Mesiano "Fac. Ingegneria",,46.067198,11.139497,10110,1
147_12,25410z,Mesiano "Stazione Fs",,46.064947,11.141689,10110,1
148_12,25410x,Mesiano "Stazione Fs",,46.065068,11.141726,10110,1
149_12,25045z,Povo Valoni,,46.065698,11.146418,10110,1
150_12,25045x,Povo Valoni,,46.065746,11.146326,10110,1
151_12,24510c,Montevaccino,,46.108340,11.142765,10110,2
152_12,24515z,Montevaccino di Sotto,,46.109439,11.139972,10110,2
153_12,24515x,Montevaccino di Sotto,,46.109508,11.140097,10110,2
154_12,24520z,Sp 131 "Paganin",,46.106288,11.137610,10110,2
155_12,24520x,Sp 131 "Paganin",,46.106524,11.137306,10110,2
156_12,24505z,M.Vaccino "Maso Librar",,46.110418,11.138435,10110,2
157_12,24505x,M.Vaccino "Maso Librar",,46.110776,11.138074,10110,2
158_12,28055z,Ss 45 "Montevideo",,46.080499,11.098333,10110,2
159_12,25640z,Villazzano Valnigra,,46.052092,11.146621,10110,1
160_12,25640x,Villazzano Valnigra,,46.052181,11.146486,10110,1
161_12,25105c,Oltrecastello,,46.072808,11.161957,10110,2
162_12,21300x,F.Lli Fontana Gen. Cantore,,46.076802,11.119114,10110,1
163_12,20115c,Piazza Dante "Palazzo Pat",,46.072304,11.120426,10110,1
164_12,20525z,Piazza Duomo,,46.067600,11.121798,10110,2
165_12,21545-,Piazza di Fiera,,46.065221,11.123271,10110,2
166_12,21595x,S.Francesco Porta Nuova,,46.066776,11.126346,10110,1
167_12,21560z,Piazza Vicenza,,46.062137,11.132764,10110,2
168_12,21560x,Piazza Vicenza,,46.062292,11.132772,10110,1
169_12,21565z,Piazzale A22,,46.077292,11.111111,10110,2
171_12,21175z,Brescia "Piedicastello",,46.070808,11.112292,10110,2
172_12,21175x,Brescia "Piedicastello",,46.070494,11.111383,10110,2
173_12,21625-,Tanzengiale Ovest Pezcoller,,46.047739,11.113564,10110,2
174_12,24605z,Ponte Lodovico,,46.069352,11.138957,10110,1
175_12,24605x,Ponte Lodovico,,46.069523,11.140201,10110,2
176_12,21745x,Venezia "Port'aquila",,46.069865,11.128221,10110,2
177_12,21225z,Cervara "Port'aquila",,46.070179,11.128083,10110,2
178_12,21225x,Cervara "Port'aquila",,46.070164,11.127890,10110,1
179_12,25505z,Spré Pinara,,46.067264,11.160937,10110,1
180_12,25505x,Spré Pinara,,46.067264,11.160807,10110,1
181_12,25005z,Povo "Casa di Riposo",,46.065663,11.159678,10110,2
182_12,25005x,Povo "Casa di Riposo",,46.065594,11.159530,10110,1
183_12,25010z,Povo "Centro Civico",,46.064162,11.152006,10110,1
184_12,25010x,Povo "Centro Civico",,46.063862,11.151912,10110,2
185_12,25035z,Povo S.Agata,,46.066291,11.156494,10110,1
186_12,25030z,Povo Piazza Manci,,46.065806,11.154617,10110,1
187_12,25030x,Povo Piazza Manci,,46.065955,11.154596,10110,2
188_12,25015z,Povo "Fac. Scienze",,46.063289,11.150005,10110,1
189_12,25015x,Povo "Fac. Scienze",,46.063316,11.150209,10110,1
190_12,25020z,Povo "Polo Sociale",,46.065442,11.157973,10110,2
191_12,25020x,Povo "Polo Sociale",,46.065632,11.157936,10110,1
192_12,27035n,Ravina Masere,,46.039165,11.111935,10110,2
193_12,27035s,Ravina Masere,,46.039202,11.112293,10110,1
194_12,27010z,Ravina "Case Itea",,46.037329,11.114043,10110,2
195_12,27010x,Ravina "Case Itea",,46.037940,11.114062,10110,2
196_12,27020-,Ravina Chiesa,,46.037726,11.107755,10110,2
197_12,27045-,Ravina Piazza,,46.037878,11.108509,10110,1
198_12,27040z,Ravina Per Belvedere,,46.041292,11.106159,10110,2
199_12,27040x,Ravina Per Belvedere,,46.041001,11.106237,10110,2
200_12,27025z,Ravina Del Ponte,,46.043295,11.112317,10110,2
201_12,27025x,Ravina Del Ponte,,46.041069,11.113117,10110,2
202_12,20120c,Piazza Dante "Pal. Regione",,46.071711,11.121389,10110,1
203_12,27215z,Romagnano Nord,,46.020174,11.110857,10110,2
204_12,27215x,Romagnano Nord,,46.019954,11.110897,10110,2
205_12,27210z,Romagnano Fontanelle,,46.015323,11.107087,10110,2
206_12,27210x,Romagnano Fontanelle,,46.014633,11.106836,10110,2
207_12,27205z,Romagnano 7 Fontane,,46.014689,11.105064,10110,2
208_12,27220c,Romagnano Piazza Condini,,46.017751,11.105818,10110,1
209_12,27230z,Romagnano Sud,,46.012857,11.105449,10110,2
210_12,27230x,Romagnano Sud,,46.012091,11.104952,10110,2
211_12,27225z,Romagnano Rimoni,,46.016782,11.108221,10110,2
212_12,27225x,Romagnano Rimoni,,46.016488,11.108269,10110,2
213_12,22505c,Roncafort,,46.101271,11.101583,10110,2
214_12,22230x,Ss 12 "Zona Ind.Le Ftm",,46.120242,11.105822,10110,2
215_12,25040z,Povo Salé,,46.062029,11.151722,10110,1
216_12,25040x,Povo Salé,,46.062016,11.150851,10110,2
217_12,21765z,Verona "S.Bartolameo",,46.050720,11.130389,10110,1
218_12,21765x,Verona "S.Bartolameo",,46.050943,11.130473,10110,1
219_12,24610x,San Donà,,46.071656,11.138308,10110,1
220_12,24615z,San Donà "Chiesa",,46.072152,11.138406,10110,2
222_12,24610z,San Donà,,46.070879,11.139532,10110,2
223_12,22225x,Lamar Sponda Trentina,,46.134588,11.111690,10110,2
224_12,23305x,San Lazzaro Ponte Avisio,,46.137885,11.118354,10110,1
226_12,25810e,San Rocco Torricelle,,46.038541,11.145521,10110,2
227_12,25805-,San Rocco Piazza,,46.036364,11.146158,10110,1
228_12,24905c,Piazza Madonna Delle Laste,,46.074103,11.135256,10110,1
229_12,28035z,Sopramonte Piazza Oveno,,46.071317,11.059207,10110,2
230_12,28030z,Sopramonte Bivio Baselga,,46.075572,11.058469,10110,2
231_12,28030x,Sopramonte Bivio Baselga,,46.075783,11.058721,10110,2
232_12,28025z,Sopramonte "Valle",,46.075836,11.056024,10110,2
233_12,28025x,Sopramonte "Valle",,46.075950,11.055788,10110,2
234_12,28020z,Sopramonte "Novai",,46.067706,11.061545,10110,1
235_12,28035c,Sopramonte Piazza Oveno,,46.071151,11.059520,10110,2
236_12,28005z,Sopramonte "Bunaga",,46.069103,11.056869,10110,2
237_12,28005x,Sopramonte "Bunaga",,46.069730,11.057698,10110,1
238_12,22630c,Spini di Gardolo,,46.121729,11.089889,10110,2
239_12,22620z,Spini Linz,,46.118504,11.096131,10110,2
240_12,22620x,Spini Linz,,46.118550,11.096708,10110,2
241_12,22605z,Spini Monaco,,46.118623,11.092766,10110,2
242_12,22605x,Spini Monaco,,46.118581,11.092616,10110,2
243_12,25510z,Spré S.Lucia,,46.069294,11.161412,10110,2
244_12,25510x,Spré S.Lucia,,46.069214,11.161151,10110,2
245_12,28045z,Sp 85 "Soraval",,46.083258,11.063955,10110,2
246_12,28045x,Sp 85 "Soraval",,46.083094,11.063877,10110,2
247_12,20125p,Piazza Dante "Stazione Fs",,46.071917,11.119568,10110,1
248_12,24715z,Tavernaro Centro,,46.081448,11.154819,10110,2
249_12,24715x,Tavernaro Centro,,46.081538,11.154897,10110,1
250_12,24705z,Tavernaro "Salet",,46.081815,11.157965,10110,1
251_12,24705x,Tavernaro "Salet",,46.082026,11.158507,10110,1
252_12,24710z,Tavernaro "Villa Clementi",,46.080906,11.157521,10110,2
253_12,24710x,Tavernaro "Villa Clementi",,46.081266,11.155969,10110,2
254_12,28310p,Vela Centro,,46.082085,11.102047,10110,2
255_12,28305z,Vela Alla Scala,,46.078955,11.103563,10110,1
256_12,28305x,Vela Alla Scala,,46.078841,11.103473,10110,1
257_12,22030z,Gardolo 4 Nov. Canova,,46.098861,11.112925,10110,1
258_12,22025z,Gardolo 4 Nov. "Piscina",,46.104288,11.112963,10110,1
259_12,22035z,Gardolo 4 Nov. Soprasasso,,46.106560,11.112346,10110,2
260_12,21055x,Adamello Gorizia,,46.059853,11.132395,10110,2
261_12,22020-,Gardolo "Stazione Ftm",,46.107233,11.103861,10110,2
262_12,22305n,M. Rossi "Stella D.Mattino",,46.107384,11.101204,10110,1
263_12,22305s,M. Rossi "Stella D.Mattino",,46.107331,11.100406,10110,1
264_12,21060x,Al Desert Muredei,,46.051409,11.117370,10110,2
265_12,21060z,Al Desert Muredei,,46.050987,11.117056,10110,2
266_12,21065x,Al Desert Ragazzi Del '99,,46.046952,11.115704,10110,2
267_12,21065z,Al Desert Ragazzi Del '99,,46.047147,11.115661,10110,2
269_12,21075z,Apuleio "Case Degasperi",,46.073284,11.115482,10110,1
270_12,21080z,Apuleio "Ponte S.Giorgio",,46.076220,11.115030,10110,2
271_12,21090z,Asiago "Cernidor",,46.050242,11.137200,10110,2
272_12,21085z,Asiago "Bellevue",,46.053348,11.136344,10110,2
273_12,21085x,Asiago "Bellevue",,46.053209,11.136495,10110,2
274_12,21090x,Asiago "Cernidor",v.Asiago fr.civ. 6 ang.v.de la Toresela,46.049550,11.137273,10110,2
275_12,21005z,Castello Buonconsiglio,,46.070312,11.126964,10110,2
276_12,21645x,Sanzio "Castello",,46.071906,11.126021,10110,2
277_12,21110-,Barbacovi "Itg Pozzo",,46.064329,11.129974,10110,2
278_12,21680z,Ss 47 Muralta,,46.077059,11.131773,10110,2
279_12,24315z,Martignano Capitel,,46.082132,11.127158,10110,2
280_12,24315x,Martignano Capitel,,46.081762,11.126874,10110,1
281_12,21120z,Bettini "Nido Mad. Bianca",,46.040477,11.135351,10110,2
282_12,21120x,Bettini "Nido Mad. Bianca",,46.040082,11.135431,10110,1
283_12,21125x,Bezzi Filzi,,46.058467,11.119271,10110,1
284_12,21130z,Bolghera "S.Antonio",,46.058155,11.131199,10110,1
285_12,22210x,Lamar "Sottostazione Enel",,46.130819,11.110121,10110,2
286_12,22710x,Ss 12 "Pioppeto",,46.108369,11.108528,10110,1
287_12,22715x,Ss 12 Bivio Meano,,46.116062,11.106197,10110,2
288_12,22720x,Ss 12 Canova,,46.098985,11.111739,10110,1
289_12,22705x,Ss 12 "Paludi",via Bolzano incrocio via Noce,46.102643,11.110490,10110,2
290_12,22720z,Ss 12 Canova,,46.100264,11.111578,10110,1
291_12,21135x,Brennero "Bren Center",,46.091361,11.115392,10110,1
292_12,21135z,Brennero "Bren Center",,46.091461,11.115591,10110,1
293_12,21165z,Brennero Marconi,,46.082901,11.120503,10110,1
294_12,21160z,Brennero Malvasia,,46.077969,11.123274,10110,1
295_12,21165x,Brennero Marconi,,46.083720,11.119823,10110,1
296_12,21145x,Brennero "Magnete",,46.089442,11.116527,10110,1
297_12,21140z,Brennero "Ex Scalo Filzi",,46.079982,11.122133,10110,1
298_12,21140x,Brennero "Ex Scalo Filzi",,46.079590,11.122150,10110,1
300_12,21155z,Brennero "Tridente",,46.086479,11.118447,10110,2
301_12,21190x,Brigata Acqui "Itc Tambosi",,46.065346,11.128400,10110,2
302_12,20505z,Calepina Roccabruna,,46.066833,11.122735,10110,2
303_12,22510z,Roncafort Bettine,,46.097530,11.102648,10110,2
304_12,21040z,Caneppele Goio,,46.094476,11.105228,10110,2
305_12,21040x,Caneppele Goio,,46.094431,11.105006,10110,2
306_12,21675z,Spalliera Cereria,,46.074170,11.128506,10110,2
307_12,21675x,Spalliera Cereria,,46.074158,11.128327,10110,2
308_12,24325z,Martignano Cesarini,,46.086271,11.129177,10110,2
309_12,24325x,Martignano Cesarini,,46.087137,11.129668,10110,2
310_12,21240z,Conci De Riccabona,,46.039645,11.140944,10110,2
311_12,21240x,Conci De Riccabona,,46.039406,11.140409,10110,1
312_12,21235z,Conci Ferrovia,,46.039365,11.137717,10110,2
313_12,21235x,Conci Ferrovia,,46.039883,11.137453,10110,2
314_12,21255z,Degasperi Anna Frank,,46.050201,11.124017,10110,1
315_12,21255x,Degasperi Anna Frank,,46.051099,11.123052,10110,1
316_12,21250z,Degasperi "Palazzo Stella",,46.043178,11.129229,10110,1
317_12,21250x,Degasperi "Palazzo Stella",,46.042977,11.129678,10110,1
318_12,21245z,Degasperi "Big Center",,46.045116,11.127949,10110,1
319_12,21245x,Degasperi "Big Center",,46.045242,11.128108,10110,2
320_12,21260z,Degasperi La Clarina,,46.048203,11.126520,10110,1
321_12,21260x,Degasperi La Clarina,,46.048680,11.126247,10110,1
322_12,21275z,Dei Mille "Villa Igea",,46.062490,11.127802,10110,1
323_12,21275x,Dei Mille "Villa Igea",,46.062506,11.127984,10110,1
324_12,25610z,Villazzano "Villa De Mersi",,46.048131,11.143328,10110,1
325_12,24330z,Martignano Costiole,,46.092274,11.132622,10110,1
326_12,24330x,Martignano Costiole,,46.092513,11.132436,10110,2
327_12,24320z,Martignano Castori,,46.083356,11.127848,10110,2
328_12,24320x,Martignano Castori,,46.083311,11.127683,10110,1
329_12,21290x,Dos Trento Mariano,,46.074597,11.113358,10110,1
330_12,21285x,Dos Trento Apuleio,,46.073022,11.114843,10110,1
331_12,21030x,Ponte S.Giorgio,,46.076974,11.114129,10110,2
333_12,21300z,F.Lli Fontana Gen. Cantore,,46.076988,11.118892,10110,1
334_12,21295z,F.Lli Fontana Oberziner,,46.077461,11.116749,10110,1
335_12,21310z,Fermi La Clarina,,46.048733,11.128986,10110,2
338_12,21315z,Fogazzaro "Piscina",,46.056279,11.130465,10110,1
339_12,21315x,Fogazzaro "Piscina",,46.055966,11.129610,10110,1
340_12,25815z,Ss 349 Pozzata,,46.039534,11.144070,10110,2
341_12,20510x,Galilei Firmian,,46.068182,11.125504,10110,2
342_12,21320x,Gandhi "Parco Anna Frank",,46.051689,11.124402,10110,1
344_12,21335x,Gerola "Ospedale S.Chiara",,46.058389,11.133087,10110,1
345_12,21345z,Ghiaie Monte Baldo,,46.056275,11.116062,10110,2
346_12,21340z,Ghiaie "Giardinerie",,46.053228,11.116716,10110,1
347_12,21350x,Giovanelli "Osp. S.Camillo",,46.065485,11.131892,10110,2
348_12,21360z,Giusti Pascoli,,46.060364,11.118908,10110,1
349_12,21355x,Giusti "Arcivescovile",,46.061394,11.119040,10110,1
350_12,21010c,Gocciadoro "Arcate",,46.054910,11.133806,10110,1
351_12,21365-,Gocciadoro "Poliambulatori",,46.055618,11.132178,10110,1
352_12,21370z,Gorizia Adamello,,46.059882,11.131327,10110,1
353_12,21375x,Gramsci "Materna La Clarina",,46.053319,11.125589,10110,1
354_12,21380x,Gramsci Einaudi,,46.052678,11.128127,10110,2
355_12,21390x,Grazioli Brigata Acqui,,46.067096,11.128810,10110,2
356_12,21405z,Guardini Gilli,,46.091986,11.119080,10110,1
357_12,21405x,Guardini Gilli,,46.091235,11.119268,10110,2
358_12,21425z,Lunelli Centochiavi,,46.092703,11.119936,10110,1
360_12,21440x,Maccani "Rotatoria",,46.082766,11.114831,10110,1
361_12,21455z,Maccani Commercio,,46.091714,11.107510,10110,2
362_12,21455x,Maccani Commercio,,46.091591,11.107450,10110,1
363_12,21450z,Maccani Campotrentino,,46.085771,11.112487,10110,2
364_12,21450x,Maccani Campotrentino,,46.085490,11.112579,10110,2
365_12,21445z,Maccani Abondi,,46.080928,11.116577,10110,1
366_12,21445x,Maccani Abondi,,46.080800,11.116529,10110,1
368_12,21435z,Maccani "Polizia Locale",,46.089720,11.109149,10110,1
369_12,21435x,Maccani "Polizia Locale",,46.090562,11.108259,10110,1
370_12,21440z,Maccani "Rotatoria",,46.082853,11.114968,10110,1
371_12,21430z,Maccani "Ex Sloi",,46.087721,11.110915,10110,1
372_12,21430x,Maccani "Ex Sloi",,46.087847,11.110579,10110,1
373_12,20515x,Manci Galasso,,46.069881,11.122470,10110,2
374_12,21475z,Marconi Solteri,,46.084413,11.121323,10110,2
375_12,21475x,Marconi Solteri,,46.084543,11.121732,10110,1
376_12,25630z,Villazzano Marzola,,46.046672,11.148788,10110,2
377_12,25630x,Villazzano Marzola,,46.046549,11.149058,10110,2
378_12,25625z,Villazzano Giordano,,46.050678,11.148464,10110,2
379_12,25625x,Villazzano Giordano,,46.050736,11.148327,10110,2
380_12,21480x,Mattioli Vittorio Veneto,,46.058838,11.122521,10110,2
382_12,21490z,Menguzzato Al Casteller,,46.038222,11.134508,10110,2
383_12,21485z,Menguzzato "Centro Civico",,46.040449,11.131690,10110,1
384_12,21485x,Menguzzato "Centro Civico",,46.040107,11.132070,10110,1
385_12,21490x,Menguzzato Al Casteller,,46.038106,11.134135,10110,2
386_12,21495x,Milano A Prato,,46.060791,11.127602,10110,2
387_12,21495z,Milano A Prato,,46.060723,11.127671,10110,2
388_12,21500z,Missioni Africane,,46.076760,11.128229,10110,2
389_12,21035z,Quattro Strade,,46.075587,11.128243,10110,2
390_12,21035x,Quattro Strade,,46.076150,11.128131,10110,2
391_12,21500x,Missioni Africane,,46.078671,11.127111,10110,2
392_12,21505x,Monte Baldo Ghiaie,,46.057153,11.115163,10110,2
393_12,21515z,Muredei Prati,,46.056966,11.118125,10110,2
395_12,21510z,Muredei Benevoli,,46.053728,11.118206,10110,2
397_12,21520x,Oberziner Alpini,,46.078744,11.117589,10110,1
398_12,20520z,Orfane S.Maria Maggiore,,46.068847,11.119927,10110,2
400_12,21525x,Pasubio Adamello,,46.060030,11.133381,10110,1
401_12,21305x,F.Lli Perini 3 Novembre,,46.060903,11.124400,10110,1
402_12,21535z,Piave "Parco S.Chiara",,46.064151,11.127563,10110,2
403_12,21580x,Romagnosi Vannetti,,46.072993,11.122651,10110,2
404_12,21585z,Rosmini "Cimitero" / Muse,,46.064185,11.119431,10110,1
405_12,21585x,Rosmini "Cimitero",,46.063745,11.119596,10110,1
406_12,21590x,Rosmini S.Maria Maggiore,,46.067846,11.118867,10110,1
407_12,21590z,Rosmini S.Maria Maggiore,,46.068100,11.118642,10110,1
408_12,21045z,3 Nov. "Centro S.Chiara",,46.062231,11.123671,10110,1
409_12,21045x,3 Nov. "Centro S.Chiara",,46.062181,11.123931,10110,1
410_12,21595z,S.Francesco Porta Nuova,,46.067075,11.126226,10110,1
411_12,20530x,S.Pietro Degli Orbi,,46.069404,11.124511,10110,2
412_12,21615x,S.Pio X Matteotti,,46.056396,11.119944,10110,2
413_12,21610z,S.Pio X Largo Prati,,46.056862,11.119124,10110,1
414_12,21605z,S.Pio X Benevoli,,46.053951,11.120497,10110,1
415_12,21605x,S.Pio X Benevoli,,46.053806,11.120736,10110,1
416_12,21635x,Sanseverino S.Nicolò,,46.052351,11.112016,10110,2
417_12,21635z,Sanseverino S.Nicolò,,46.051036,11.111609,10110,2
420_12,21650x,Segantini Centa,,46.075601,11.122399,10110,1
421_12,21655x,Segantini Dogana,,46.074211,11.121460,10110,2
422_12,21665z,Solteri "Piazzina",,46.085489,11.122562,10110,1
423_12,21665x,Solteri "Piazzina",,46.085516,11.122391,10110,2
424_12,21670z,Solteri Largaiolli,,46.089937,11.120942,10110,1
425_12,21670x,Solteri Largaiolli,,46.090005,11.120776,10110,1
426_12,21660z,Solteri "Nido La Trottola",,46.087985,11.121274,10110,1
427_12,21660x,Solteri "Nido La Trottola",,46.087571,11.121354,10110,1
428_12,22005z,Gardolo Soprasasso,,46.105677,11.107554,10110,2
429_12,22005x,Gardolo Soprasasso,,46.105613,11.107590,10110,2
430_12,22010-,Gardolo "Cimitero",,46.106505,11.105512,10110,1
431_12,21025z,Parco Del Dos Trent,,46.073381,11.107449,10110,2
432_12,21025x,Parco Del Dos Trent,,46.073309,11.107377,10110,2
433_12,21185z,Brescia Divisioni Alpine,,46.071055,11.109691,10110,2
434_12,21185x,Brescia Divisioni Alpine,,46.070912,11.109660,10110,2
435_12,28315z,Vela S.Giorgio,,46.076202,11.105081,10110,2
436_12,28315x,Vela S.Giorgio,,46.076061,11.105187,10110,1
437_12,21280z,Dos Trento "Centro Sportivo",,46.075206,11.107949,11015,2
438_12,21280x,Dos Trento "Centro Sportivo",,46.075132,11.107771,11015,2
439_12,27050z,Sp 90 "Maso Prudenza",,46.028867,11.111521,10110,2
440_12,27050x,Sp 90 "Maso Prudenza",,46.029290,11.111771,10110,2
441_12,22315o,Maso Rossi Aichner,,46.105159,11.100565,10110,2
443_12,21700z,Torre Verde Galasso,,46.070658,11.122787,10110,2
444_12,21710z,Travai Al Nuoto / Muse,,46.064556,11.120926,10110,1
446_12,21790z,Vittorio Veneto "S.Giuseppe",,46.057772,11.119307,10110,1
447_12,21795z,Vittorio Veneto Lorenzoni,,46.058577,11.123837,10110,1
448_12,21410z,Largo Prati,,46.057597,11.117583,10110,2
449_12,21410x,Largo Prati,,46.057417,11.117430,10110,2
450_12,21750z,Venezia Cave,,46.066609,11.131484,10110,2
451_12,21750x,Venezia Cave,,46.066491,11.132676,10110,2
452_12,21735z,Venezia "Corallo",,46.068570,11.136388,10110,1
453_12,21735x,Venezia "Corallo",,46.069162,11.136348,10110,1
454_12,21785z,Vicenza Montello,,46.061670,11.135931,10110,1
455_12,21785x,Vicenza Montello,,46.061778,11.135821,10110,1
456_12,21800o,Zambra "Ist. D'arte Vittoria",,46.092337,11.116358,10110,1
457_12,21775z,Verona Fogazzaro,,46.056510,11.128372,10110,1
458_12,21775x,Verona Fogazzaro,,46.056407,11.128667,10110,1
459_12,21760z,Verona "Palazzo Stella",,46.043574,11.131166,10110,1
460_12,21780x,Verona Menguzzato,,46.042589,11.131405,10110,2
461_12,21755z,Verona "Questura",,46.047815,11.130991,10110,2
462_12,21770z,Verona Einaudi,,46.052915,11.129683,10110,1
463_12,21770x,Verona Einaudi,,46.052746,11.129880,10110,1
464_12,21755x,Verona "Questura",,46.048048,11.131243,10110,2
466_12,21050x,3 Nov. "Ponte Cavalleggeri",,46.059292,11.126670,10110,1
467_12,23415z,Vigo Meano Rio Papa,,46.133302,11.132599,10110,2
468_12,23415x,Vigo Meano Rio Papa,,46.133567,11.132452,10110,2
469_12,23410z,Vigo Meano Piazza Stainer,,46.131626,11.134225,10110,1
470_12,23410x,Vigo Meano Piazza Stainer,,46.132010,11.134083,10110,1
471_12,23205z,Gazzadina Al Molar,,46.130605,11.130767,10110,2
472_12,23205x,Gazzadina Al Molar,,46.130546,11.130630,10110,2
473_12,25645z,Villazzano Villa Belfonte,,46.043515,11.149665,10110,2
474_12,25645x,Villazzano Villa Belfonte,,46.043654,11.149738,10110,2
475_12,25615z,Villazzano "Villa Tambosi",,46.043856,11.140566,10110,1
476_12,25615x,Villazzano "Villa Tambosi",,46.043867,11.140230,10110,1
477_12,24810c,Villamontagna P.Predaroi,,46.086139,11.160226,10110,1
478_12,24805z,Villamontagna "Michei",,46.084032,11.162655,10110,2
479_12,24805x,Villamontagna "Michei",,46.084634,11.163253,10110,2
481_12,25605z,Villazzano "Chiesa",,46.049549,11.144079,10110,2
484_12,25635z,Villazzano Piazza Nicolini,,46.048986,11.145976,10110,2
485_12,25635x,Villazzano Piazza Nicolini,,46.049116,11.146036,10110,2
486_12,25620x,Villazzano Banala,,46.047513,11.142278,10110,1
488_12,21230c,Conci "Villazzano 3",,46.041088,11.140552,10110,1
490_12,24205z,Zell Marnighe,,46.080366,11.138214,10110,1
491_12,24205x,Zell Marnighe,,46.079984,11.138881,10110,1
492_12,22610z,Spini "Officine",,46.118326,11.100624,10110,2
493_12,22610x,Spini "Officine",,46.118172,11.100941,10110,2
494_12,22625z,Spini "Zona Ind.Le Ftm",,46.118118,11.103691,10110,2
495_12,22625x,Spini "Zona Ind.Le Ftm",,46.118028,11.103638,10110,2
496_12,22615z,Spini Klagenfurt,,46.117796,11.094285,10110,1
497_12,22615x,Spini Klagenfurt,,46.117695,11.094346,10110,1
524_12,21050z,3 Nov. "Ponte Cavalleggeri",,46.059417,11.126263,10110,1
527_12,23010z,Meano "Centro Civico",,46.126522,11.116682,10110,1
2120_12,21805o,Zambra "Top Center",,46.091075,11.117774,10110,1
2189_12,20130c,Piazza Dante "Dogana",,46.072592,11.119949,10110,1
2374_12,21730x,Trieste Fiume,,46.063369,11.133421,10110,2
2375_12,21725x,Trieste "Busa",,46.064822,11.135627,10110,1
2376_12,21385x,Grazioli "Osp. S.Camillo",,46.065677,11.132418,10110,2
2377_12,23050x,Sp 76 Bivio S.Lazzaro,,46.129006,11.115500,10110,2
2380_12,21720z,Trener "3 Torri Pat",,46.095023,11.116759,10110,2
2383_12,21400c,Guardini "Centochiavi",,46.092561,11.118580,10110,1
2384_12,21805e,Zambra "Top Center",,46.091124,11.117966,10110,2
2385_12,21800e,Zambra "Ist. D'arte Vittoria",,46.092507,11.116291,10110,2
2386_12,23010x,Meano "Centro Civico",,46.127448,11.116520,10110,1
2389_12,21215x,Centochiavi Lunelli,,46.092618,11.120549,10110,1
2404_12,27205x,Romagnano 7 Fontane,,46.014314,11.104351,10110,2
2405_12,21715z,Travai Piazza Fiera,,46.064770,11.122471,10110,2
2406_12,21340x,Ghiaie "Giardinerie",,46.052906,11.117029,10110,1
2407_12,21345x,Ghiaie Monte Baldo,,46.056336,11.116202,10110,2
2408_12,21020-,Parcheggio Zuffo,,46.075042,11.109713,11015,2
2409_12,20105-,Cavalcavia S.Lorenzo,,46.070352,11.119107,10110,2
2412_12,21565x,Piazzale A22,,46.077383,11.111236,10110,2
2418_12,22710z,Ss 12 "Pioppeto",,46.108623,11.108717,10110,1
2419_12,22730z,Ss 12 S.Anna,,46.112409,11.107438,10110,2
2422_12,22507z,Roncafort "Asilo",,46.100730,11.101790,10110,1
2423_12,22315e,Maso Rossi Aichner,,46.105166,11.100786,10110,2
2424_12,21600x,S.Lorenzo "Funivia",,46.070045,11.116683,10110,2
2426_12,21600z,S.Lorenzo "Funivia",,46.070304,11.117242,10110,1
2431_12,21620x,Sanseverino "Albere"/Muse,,46.063334,11.113227,10110,1
2432_12,21640x,Sanseverino Verdi,,46.065846,11.114266,10110,1
2435_12,21170z,Brescia "Ca Dei Gai",,46.073516,11.105355,10110,2
2437_12,27030-,Ravina Della Croce,,46.040974,11.110975,10110,1
2438_12,22725z,Ss 12 Talvera,,46.103288,11.110545,10110,1
2446_12,22650z,Ghiaie "Zona Ind.Le Ftm",,46.119113,11.105302,10110,2
2447_12,22655z,Ghiaie Salisburgo,,46.122767,11.103337,10110,2
2448_12,22660z,Ghiaie "Sc. Materna",,46.124931,11.099736,10110,2
2449_12,22607x,Spini Praga,,46.123666,11.097351,10110,2
2453_12,22680x,Palazzine Maso S.Antonio,loc. Palazzine 117,46.115041,11.101844,10110,2
2454_12,22690x,Crosare Officina,via Crosare 64,46.110069,11.105486,10110,2
2455_12,22695x,Crosare Parcheggio,,46.107991,11.105394,10110,2
2457_12,22805z,Gardolo Castel di Gardolo,,46.113907,11.110614,10110,2
2458_12,22805x,Gardolo Castel di Gardolo,,46.113885,11.111224,10110,2
2470_12,21265x,Jedin Sanseverino,,46.051139,11.114415,10110,2
2472_12,22215z,Lamar "Via Rossa",,46.121491,11.106413,10110,2
2483_12,28040z,Sopramonte "Campra",,46.078491,11.058290,10110,1
2484_12,28040x,Sopramonte "Campra",,46.078730,11.058131,10110,1
2485_12,21170x,Brescia "Ca Dei Gai",,46.073335,11.105639,10110,2
2488_12,21570x,Pranzelores "Top Center",,46.089853,11.118524,10110,1
2489_12,21575x,Pranzelores "Tridente",,46.086557,11.120064,10110,1
2490_12,25025z,Povo Pantè,,46.064013,11.150940,10110,2
2491_12,22520x,Roncafort Caproni,,46.100115,11.099708,10110,2
2492_12,22510x,Roncafort Bettine,,46.097544,11.102220,10110,1
2497_12,27005z,Ponte di Ravina,,46.045489,11.113301,10110,2
2498_12,27005x,Ponte di Ravina,,46.045520,11.113603,10110,2
2499_12,25605x,Villazzano "Chiesa",,46.049487,11.143843,10110,1
2500_12,21685z,Ss 45 "Scala",,46.077367,11.099792,10110,2
2501_12,28010z,Sopramonte "M.Petoci",,46.066953,11.059509,10110,2
2502_12,23405z,Vigo Meano Don Perugini,,46.132987,11.133921,10110,2
2505_12,24005z,Cognola "Chiesa",,46.076326,11.141355,10110,1
2506_12,21507-,Muralta Valsugana,,46.076656,11.130377,10110,2
2520_12,21753x,Verdi Inama,,46.066496,11.117759,10110,1
2521_12,23225-,Gazzadina Le Case Nòve,,46.134118,11.128307,10110,1
2522_12,23220z,Gazzadina Del Porfido,,46.130582,11.126162,10110,1
2524_12,25270c,Cimirlo,,46.067613,11.184700,10110,2
2525_12,25260x,Eremo,,46.068317,11.178756,10110,2
2526_12,25265-,Celva,,46.070701,11.176484,10110,2
2527_12,25255x,Via Eremo,,46.067996,11.175565,10110,2
2528_12,25215x,Maso di Brenz,,46.065719,11.172233,10110,2
2529_12,25210x,Borino Civ.69,,46.066125,11.168745,10110,2
2530_12,25205z,Borino,,46.067180,11.165118,10110,2
2532_12,25210z,Borino Civ.69,,46.066010,11.168863,10110,2
2533_12,25215z,Maso di Brenz,,46.065674,11.172380,10110,2
2534_12,25255z,Via Eremo,,46.067908,11.175717,10110,2
2535_12,25260z,Eremo,,46.068202,11.178588,10110,2
2537_12,21754z,Verona "Big Center",,46.045763,11.130821,10110,1
2538_12,21754x,Verona "Big Center",,46.045691,11.131061,10110,1
2549_12,25020c,Povo "Polo Sociale" Cap.,,46.065613,11.158009,10110,1
2663_12,22022z,Gardolo 4 Nov. 2 Giugno,,46.101253,11.112956,10110,1
2664_12,22635x,Spini Loghét,,46.120499,11.091086,10110,1
2665_12,22635z,Spini Loghét,,46.120567,11.091220,10110,1
2667_12,27505-,Fersina "Campi Da Tennis",,46.044826,11.122297,10110,2
2668_12,27510-,Fersina "Zona Artigianale",,46.038207,11.124589,11015,2
2669_12,27515-,Fersina "Zona Sportiva",,46.041683,11.123711,10110,2
2670_12,24910-,Piazza Cappuccini,,46.073078,11.128449,10110,2
2671_12,24915-,Avancini Laste,,46.071422,11.130842,10110,2
2672_12,24920-,Rsa Angeli Custodi,,46.069880,11.131249,10110,2
2673_12,24925-,Giardini Collina,,46.068141,11.129681,10110,2
2680_12,20145-,Gazzoletti Piazza Dante,,46.071816,11.121974,10110,1
2682_12,25050-,Povo Sommarive,,46.065586,11.150448,10110,2
2683_12,25055z,Povo "Polo Scientifico" Est,,46.067312,11.150548,10110,2
2688_12,25650x,Villazzano "Stazione Fs",,46.044757,11.139690,15650,1
2689_12,25650z,Villazzano "Stazione Fs",,46.044754,11.139437,10110,1
2696_12,25655z,Conci "Enaip",,46.045465,11.138353,10110,1
2701_12,25815x,Ss 349 Pozzata,,46.041779,11.142383,10110,2
2713_12,21290o,Dos Trento Mariano,,46.073694,11.114481,10110,2
2759_12,24913-,Via Delle Laste,,46.072466,11.129920,10110,2
2763_12,22815c,Gard.D.Mezzo Dos D.La Luna,via Dos de la Luna 54,46.115344,11.117269,10110,2
2764_12,22820z,Gard.D.Mezzo Maso Garbini,via Dos de la Luna 2,46.114494,11.116634,10110,2
2767_12,23425z,Vigo Meano "S.Pietro",,46.128251,11.134574,10110,1
2780_12,21687z,Ss 45 S.Giorgio,,46.078668,11.099302,10110,2
2782_12,22555z,Spini "Pal. Giano",,46.121548,11.095251,10110,1
2783_12,22555x,Spini "Pal. Giano",,46.121743,11.094961,10110,1
2784_12,22575x,Spini Varsavia,,46.125601,11.098331,10110,2
2785_12,22575z,Spini Varsavia,,46.125804,11.098199,10110,2
2786_12,22570z,Spini Masadori,,46.119922,11.096500,10110,1
2787_12,22570x,Spini Masadori,,46.120114,11.096203,10110,1
2788_12,22560x,Spini Bregenz,,46.117160,11.092520,10110,2
2789_12,22560z,Spini Bregenz,,46.117016,11.092579,10110,2
2790_12,22565c,Spini "Casa Circondariale',,46.127009,11.096719,10110,1
2791_12,22905z,Interporto "Interbrennero",,46.111101,11.090984,10110,1
2792_12,22905x,Interporto "Interbrennero",,46.110805,11.090865,10110,1
2793_12,22915x,Innsbruck "Trentino Trasporti",via Innsbruck 65,46.101701,11.094567,10110,1
2794_12,22915z,Innsbruck "Trentino Trasporti",via Innsbruck 65,46.102220,11.094390,10110,1
2795_12,22910z,Interporto "Logistica 2",,46.106413,11.092253,10110,1
2796_12,22910x,Interporto "Logistica 2",,46.105950,11.092154,10110,1
2797_12,22920x,Interporto "Fercam",,46.108238,11.091600,10110,1
2798_12,22920z,Interporto "Fercam",,46.108308,11.091777,10110,1
2799_12,22607z,Spini Praga,,46.123624,11.097440,10110,2
2801_12,28320z,Vela "Scuole S.Vigilio",,46.081292,11.102659,10110,1
2811_12,21312x,Fermi Volta,,46.046974,11.126860,10110,2
2814_12,26012z,Mattarello Gotarda,,46.009941,11.128458,10110,2
2815_12,26027z,Mattarello Fratte,,46.005440,11.126382,10110,2
2817_12,22500c,Roncafort Nord,,46.103456,11.100248,10110,1
2820_12,25025x,Povo Pantè,,46.063947,11.150560,10110,2
2828_12,22925x,Interporto "Sait",,46.113189,11.090141,10110,1
2829_12,22925z,Interporto "Sait",,46.113223,11.090363,10110,1
2833_12,25055x,Povo "Polo Scientifico" Ovest,,46.067348,11.150372,10110,2
2872_12,24935c,Rsa S.Bartolomeo,,46.048672,11.134149,10110,2
2893_12,20500z,Calepina Liceo,,46.067092,11.124949,10110,2
2918_12,25305c,Gabbiolo Capolinea,,46.055511,11.149102,10110,2
2923_12,28200x,Cadine Della Fornas,,46.087159,11.069039,10110,2
2924_12,28200z,Cadine Della Fornas,,46.086923,11.069368,10110,2
2925_12,22665x,Spini Palazzine,,46.116627,11.099962,10110,2
2927_12,21745z,Venezia "Port'aquila",,46.069525,11.127855,10110,1
2939_12,TFun 1,Funivia-Staz. di Valle-Trento,,46.069625,11.115641,10110,2
2940_12,TFun 2,Funivia-Staz. di Monte-Sardagna,,46.065992,11.102655,10110,2
2945_12,26050x,Mattarello Rozola,,46.012737,11.132184,10110,2
2946_12,26050z,Mattarello Rozola,,46.012703,11.131963,10110,2
2947_12,26055x,Mattarello Regole,,46.011059,11.131736,10110,2
2948_12,26055z,Mattarello Regole,,46.011210,11.131632,10110,2
2949_12,26060x,Mattarello "Parco",,46.008471,11.131590,10110,2
2950_12,26060z,Mattarello "Parco",,46.007874,11.131417,10110,1
2951_12,26065x,Mattarello "Torre Franca",,46.006579,11.131078,10110,2
2952_12,26065z,Mattarello "Torre Franca",,46.005932,11.129955,10110,2
2953_12,26070z,Mattarello Ex Stazione,,46.007524,11.126760,10110,2
2954_12,26075c,Mattarello Sud,,46.002729,11.126221,10110,1
2957_12,21705-,Piazza Centa,,46.076208,11.123764,10110,1
2958_12,21555x,Quartiere Albere,,46.061431,11.115642,10110,2
2959_12,21557x,Muse,,46.062519,11.114422,10110,2
2961_12,21707-,Centa Brennero,,46.075664,11.124036,10110,1
2970_12,23405x,Vigo Meano Don Perugini,,46.133144,11.133835,10110,2
2971_12,22410z,Melta "Case Itea",,46.102287,11.118256,10110,1
2972_12,22420z,Melta 25 Aprile,,46.098900,11.115858,10110,2
2973_12,21187c,Piazzale Divisioni Alpine,,46.071069,11.109927,10110,1
2977_12,21550x,Park Monte Baldo "Albere",,46.057088,11.113414,11015,2
2990_12,27525-,Parcheggio Via Lidorno,,46.033496,11.125867,11015,2
2991_12,27530-,Parcheggio Area Camper,,46.034263,11.127218,11015,2